[{"id":"快速公交1线","location":{"A":39.779202,"q":116.43273899999997,"lng":116.432739,"lat":39.779202},"name":"德茂庄","sequence":1},{"id":"BV10000328","location":{"A":39.790695,"q":116.420433,"lng":116.420433,"lat":39.790695},"name":"东营房","sequence":2},{"id":"BV10000329","location":{"A":39.797482,"q":116.41920500000003,"lng":116.419205,"lat":39.797482},"name":"六营门","sequence":3},{"id":"BV10000679","location":{"A":39.804485,"q":116.41727400000002,"lng":116.417274,"lat":39.804485},"name":"东高地","sequence":4},{"id":"BV10000678","location":{"A":39.805195,"q":116.40696000000003,"lng":116.40696,"lat":39.805195},"name":"西洼地","sequence":5},{"id":"BV10000377","location":{"A":39.808193,"q":116.40267900000003,"lng":116.402679,"lat":39.808193},"name":"三营门","sequence":6},{"id":"BV10000677","location":{"A":39.812523,"q":116.40247299999999,"lng":116.402473,"lat":39.812523},"name":"和义南站","sequence":7},{"id":"BV10000375","location":{"A":39.816689,"q":116.40227500000003,"lng":116.402275,"lat":39.816689},"name":"和义农场","sequence":8},{"id":"BV10000374","location":{"A":39.82135,"q":116.402039,"lng":116.402039,"lat":39.82135},"name":"久敬庄","sequence":9},{"id":"BV10006292","location":{"A":39.831974,"q":116.40147400000001,"lng":116.401474,"lat":39.831974},"name":"大红门桥","sequence":10},{"id":"BV10000676","location":{"A":39.838665,"q":116.40114599999998,"lng":116.401146,"lat":39.838665},"name":"大红门西里","sequence":11},{"id":"BV10000675","location":{"A":39.847908,"q":116.40069599999998,"lng":116.400696,"lat":39.847908},"name":"南苑路果园","sequence":12},{"id":"BV10000225","location":{"A":39.857075,"q":116.40022299999998,"lng":116.400223,"lat":39.857075},"name":"木樨园桥","sequence":13},{"id":"BV10000673","location":{"A":39.864143,"q":116.39989500000001,"lng":116.399895,"lat":39.864143},"name":"沙子口","sequence":14},{"id":"BV10000672","location":{"A":39.874187,"q":116.400261,"lng":116.400261,"lat":39.874187},"name":"永定门内","sequence":15},{"id":"BV10000670","location":{"A":39.879745,"q":116.39948300000003,"lng":116.399483,"lat":39.879745},"name":"天坛西门","sequence":16},{"id":"BV10005883","location":{"A":39.899912,"q":116.39729699999998,"lng":116.397297,"lat":39.899912},"name":"前门","sequence":17}]