[{"id":"815路","location":{"A":39.993038,"q":116.78059400000001,"lng":116.780594,"lat":39.993038},"name":"诸葛店","sequence":1},{"id":"","location":{"A":39.988987,"q":116.77821399999999,"lng":116.778214,"lat":39.988987},"name":"美林小区北门","sequence":2},{"id":"","location":{"A":39.986416,"q":116.77668799999998,"lng":116.776688,"lat":39.986416},"name":"美林小区南门","sequence":3},{"id":"","location":{"A":39.979481,"q":116.77580999999998,"lng":116.77581,"lat":39.979481},"name":"星河皓月小区北门","sequence":4},{"id":"","location":{"A":39.97776,"q":116.77599299999997,"lng":116.775993,"lat":39.97776},"name":"星河皓月小区南门","sequence":5},{"id":"","location":{"A":39.970943,"q":116.77675599999998,"lng":116.776756,"lat":39.970943},"name":"燕京新城","sequence":6},{"id":"","location":{"A":39.969318,"q":116.77692400000001,"lng":116.776924,"lat":39.969318},"name":"世纪名苑","sequence":7},{"id":"","location":{"A":39.963516,"q":116.78008999999997,"lng":116.78009,"lat":39.963516},"name":"意华小区","sequence":8},{"id":"","location":{"A":39.958385,"q":116.78274499999998,"lng":116.782745,"lat":39.958385},"name":"东方夏威夷小区西门","sequence":9},{"id":"","location":{"A":39.958954,"q":116.789604,"lng":116.789604,"lat":39.958954},"name":"东方夏威夷小区东门","sequence":10},{"id":"","location":{"A":39.957371,"q":116.79744700000003,"lng":116.797447,"lat":39.957371},"name":"中赵甫村","sequence":11},{"id":"","location":{"A":39.951241,"q":116.79907200000002,"lng":116.799072,"lat":39.951241},"name":"燕郊学院街","sequence":12},{"id":"","location":{"A":39.948799,"q":116.80027799999999,"lng":116.800278,"lat":39.948799},"name":"交通干部管理学院","sequence":13},{"id":"","location":{"A":39.94313,"q":116.79865999999998,"lng":116.79866,"lat":39.94313},"name":"燕灵路口","sequence":14},{"id":"","location":{"A":39.942581,"q":116.79480000000001,"lng":116.7948,"lat":39.942581},"name":"兴达广场小区","sequence":15},{"id":"BV10001388","location":{"A":39.908527,"q":116.47047399999997,"lng":116.470474,"lat":39.908527},"name":"郎家园","sequence":16}]