[{"id":"547路","location":{"A":40.010654,"q":116.48218500000002,"lng":116.482185,"lat":40.010654},"name":"望京北路东口","sequence":1},{"id":"BV10346448","location":{"A":40.008194,"q":116.485184,"lng":116.485184,"lat":40.008194},"name":"北小河西东行","sequence":2},{"id":"BV10346447","location":{"A":40.006458,"q":116.48709100000002,"lng":116.487091,"lat":40.006458},"name":"北小河","sequence":3},{"id":"BV10428253","location":{"A":40.00922,"q":116.484444,"lng":116.484444,"lat":40.00922},"name":"北小河西西行","sequence":4},{"id":"BV10428250","location":{"A":40.010857,"q":116.482056,"lng":116.482056,"lat":40.010857},"name":"望京北路东口西行","sequence":5},{"id":"BV10000591","location":{"A":40.011589,"q":116.47589099999999,"lng":116.475891,"lat":40.011589},"name":"广泽路","sequence":6},{"id":"BV10007940","location":{"A":40.011623,"q":116.46896400000003,"lng":116.468964,"lat":40.011623},"name":"利泽中一路","sequence":7},{"id":"BV10420880","location":{"A":40.011627,"q":116.465103,"lng":116.465103,"lat":40.011627},"name":"利泽西园","sequence":8},{"id":"BV10000979","location":{"A":40.011612,"q":116.46112800000003,"lng":116.461128,"lat":40.011612},"name":"望京西路北口","sequence":9},{"id":"BV10000980","location":{"A":40.009476,"q":116.45816000000002,"lng":116.45816,"lat":40.009476},"name":"望湖公园","sequence":10},{"id":"BV10427414","location":{"A":40.001865,"q":116.45771000000002,"lng":116.45771,"lat":40.001865},"name":"世安家园","sequence":11},{"id":"BV10420708","location":{"A":39.998417,"q":116.457558,"lng":116.457558,"lat":39.998417},"name":"南湖西园","sequence":12},{"id":"BV10000585","location":{"A":39.997047,"q":116.45439899999997,"lng":116.454399,"lat":39.997047},"name":"湖光中街西口","sequence":13},{"id":"BV10000786","location":{"A":39.977982,"q":116.435631,"lng":116.435631,"lat":39.977982},"name":"地铁芍药居站","sequence":14},{"id":"BV10007946","location":{"A":39.973141,"q":116.432411,"lng":116.432411,"lat":39.973141},"name":"太阳宫桥北","sequence":15},{"id":"BV10000163","location":{"A":39.969448,"q":116.42220299999997,"lng":116.422203,"lat":39.969448},"name":"和平东桥","sequence":16},{"id":"BV10001220","location":{"A":39.969387,"q":116.42024200000003,"lng":116.420242,"lat":39.969387},"name":"和平西桥","sequence":17}]